{"type":"FeatureCollection","features":[{"type":"Feature","properties":{"marker-color":"#7e7e7e","marker-size":"medium","marker-symbol":1,"City":"Sandusky","State":"OH","Full_Addre":"1 Cedar Point Dr, Sandusky, OH 44870, USA","Name":"Cedar Point","Address":"1 Cedar Point Dr","URL":"http://www.cedarpoint.com/","Country":"US","Zip_Code":44870,"Latitude":41.4847647,"Longitude":-82.690378},"geometry":{"type":"Point","coordinates":[-82.690378,41.4847647]}},{"type":"Feature","properties":{"marker-color":"#7e7e7e","marker-size":"medium","marker-symbol":2,"City":"Elysburg","State":"PA","Full_Addre":"391 Knoebels Blvd, Elysburg, PA 17824, USA","Name":"Knoebels","Address":"391 Knoebels Blvd","URL":"http://www.knoebels.com/","Country":"US","Zip_Code":17824,"Latitude":40.8775313,"Longitude":-76.5042299},"geometry":{"type":"Point","coordinates":[-76.50422989999998,40.8775313]}},{"type":"Feature","properties":{"marker-color":"#7e7e7e","marker-size":"medium","marker-symbol":3,"City":"Lake Buena Vista","State":"FL","Full_Addre":"1180 Seven Seas Drive, Orlando, FL 32836, USA","Name":"Walt Disney World's Magic Kingdom","Address":"1180 Seven Seas Dr","URL":"http://disneyworld.disney.go.com/parks/magic-kingdom/","Country":"US","Zip_Code":32830,"Latitude":28.4197986,"Longitude":-81.5811952},"geometry":{"type":"Point","coordinates":[-81.5811952,28.4197986]}},{"type":"Feature","properties":{"marker-color":"#7e7e7e","marker-size":"medium","marker-symbol":4,"City":"New Braunfels","State":"TX","Full_Addre":"400 N Liberty Ave, New Braunfels, TX 78130, USA","Name":"Schlitterbahn Water Park","Address":"400 North Liberty Ave","URL":"http://www.schlitterbahn.com/nb/","Country":"US","Zip_Code":78130,"Latitude":29.7125754,"Longitude":-98.1232328},"geometry":{"type":"Point","coordinates":[-98.1232328,29.7125754]}},{"type":"Feature","properties":{"marker-color":"#7e7e7e","marker-size":"medium","marker-symbol":5,"City":"Orlando","State":"FL","Full_Addre":"6000 Universal Blvd, Orlando, FL 32819, USA","Name":"Universal's Islands of Adventure","Address":"6000 Universal Blvd","URL":"http://www.universalorlando.com/Amusement_Parks/Islands_of_Adventure/islands_of_adventure.aspx","Country":"US","Zip_Code":32819,"Latitude":28.4730602,"Longitude":-81.461958},"geometry":{"type":"Point","coordinates":[-81.461958,28.4730602]}},{"type":"Feature","properties":{"marker-color":"#7e7e7e","marker-size":"medium","marker-symbol":6,"City":"Valencia","State":"CA","Full_Addre":"26101 Magic Mountain Pkwy, Valencia, CA 91355, USA","Name":"Six Flags Magic Mountain","Address":"26101 Magic Mountain Pkwy","URL":"https://www.sixflags.com/magicmountain","Country":"US","Zip_Code":91355,"Latitude":34.4253587,"Longitude":-118.5972149},"geometry":{"type":"Point","coordinates":[-118.59721490000001,34.4253587]}},{"type":"Feature","properties":{"marker-color":"#7e7e7e","marker-size":"medium","marker-symbol":7,"City":"Mason","State":"OH","Full_Addre":"6300 Kings Island Dr, Mason, OH 45040, USA","Name":"Kings Island","Address":"6300 Kings Island Dr","URL":"https://www.visitkingsisland.com/","Country":"US","Zip_Code":45040,"Latitude":39.3425299,"Longitude":-84.265219},"geometry":{"type":"Point","coordinates":[-84.265219,39.3425299]}},{"type":"Feature","properties":{"marker-color":"#7e7e7e","marker-size":"medium","marker-symbol":8,"City":"Wisconsin Dells","State":"WI","Full_Addre":"1410 Wisconsin Dells Pkwy, Wisconsin Dells, WI 53965, USA","Name":"Dells Water Parks","Address":"1410 Wisconsin Dells Pkwy","URL":"http://www.dells.com/","Country":"US","Zip_Code":53965,"Latitude":43.6030402,"Longitude":-89.7867474},"geometry":{"type":"Point","coordinates":[-89.7867474,43.6030402]}},{"type":"Feature","properties":{"marker-color":"#7e7e7e","marker-size":"medium","marker-symbol":9,"City":"Hershey","State":"PA","Full_Addre":"100 Hersheypark Dr, Hershey, PA 17033, USA","Name":"Hersheypark","Address":"100 West Hersheypark Dr","URL":"http://www.hersheypark.com/","Country":"US","Zip_Code":17033,"Latitude":40.2905128,"Longitude":-76.6558994},"geometry":{"type":"Point","coordinates":[-76.6558994,40.29051279999999]}},{"type":"Feature","properties":{"marker-color":"#7e7e7e","marker-size":"medium","marker-symbol":10,"City":"Buena Park","State":"CA","Full_Addre":"8039 Beach Blvd, Buena Park, CA 90620, USA","Name":"Knott's Berry Farm","Address":"8039 Beach Blvd","URL":"http://www.knotts.com","Country":"US","Zip_Code":90620,"Latitude":33.8427827,"Longitude":-117.9983669},"geometry":{"type":"Point","coordinates":[-117.9983669,33.8427827]}}]}